{
  "version": 0.6,
  "generator": "Overpass API 0.7.55.7 8b86ff77",
  "osm3s": {
    "timestamp_osm_base": "2019-10-04T21:52:02Z",
    "copyright": "The data included in this document is from www.openstreetmap.org. The data is made available under ODbL."
  },
  "elements": [
    {
      "type": "node",
      "id": 325005039,
      "lat": 47.0371529,
      "lon": 28.8121895,
      "tags": {
        "bus": "yes",
        "highway": "bus_stop",
        "name": "Universitatea Pedagogică de Stat „Ion Creangă“",
        "name:ru": "Государственный педагогический университет им. Иона Крянгэ",
        "public_transport": "platform"
      }
    },
    {
      "type": "node",
      "id": 325005042,
      "lat": 47.0371021,
      "lon": 28.8116957,
      "tags": {
        "bus": "yes",
        "highway": "bus_stop",
        "name": "Universitatea Pedagogică de Stat „Ion Creangă“",
        "name:ru": "Государственный педагогический университет им. Иона Крянгэ",
        "public_transport": "platform"
      }
    },
    {
      "type": "node",
      "id": 325005059,
      "lat": 47.0279938,
      "lon": 28.7910786,
      "tags": {
        "highway": "bus_stop",
        "name": "Piața Unirii Principatelor",
        "name:ru": "Площадь Объединения княжеств",
        "public_transport": "platform"
      }
    },
    {
      "type": "node",
      "id": 325005062,
      "lat": 47.0287199,
      "lon": 28.7891559,
      "tags": {
        "highway": "bus_stop",
        "name": "Piaţa Unirii Principatelor",
        "name:ru": "Площадь Объединения княжеств",
        "public_transport": "platform"
      }
    },
    {
      "type": "node",
      "id": 325005065,
      "lat": 47.0282921,
      "lon": 28.7962046,
      "tags": {
        "highway": "bus_stop",
        "name": "str. Doina și Ion Aldea-Teodorovici",
        "name:ru": "ул. Дойна и Ион Алдя-Теодорович",
        "public_transport": "platform"
      }
    },
    {
      "type": "node",
      "id": 325005073,
      "lat": 47.0281582,
      "lon": 28.796342,
      "tags": {
        "highway": "bus_stop",
        "name": "str. Ion Creangă",
        "name:ru": "ул. Ион Крянгэ",
        "public_transport": "platform"
      }
    },
    {
      "type": "node",
      "id": 325005081,
      "lat": 47.0325536,
      "lon": 28.8052341,
      "tags": {
        "highway": "bus_stop",
        "name": "str. Ștefan Neaga",
        "name:ru": "ул. Штефана Няга",
        "public_transport": "platform"
      }
    },
    {
      "type": "node",
      "id": 325005084,
      "lat": 47.032428,
      "lon": 28.8054233,
      "tags": {
        "highway": "bus_stop",
        "name": "str. Ștefan Neaga",
        "name:ru": "ул. Штефана Няга",
        "public_transport": "platform"
      }
    },
    {
      "type": "node",
      "id": 340052776,
      "lat": 47.0431908,
      "lon": 28.8673308,
      "tags": {
        "highway": "bus_stop",
        "name": "Nicolai Dimo",
        "name:ru": "ул. Н. Димо",
        "public_transport": "platform"
      }
    },
    {
      "type": "node",
      "id": 376339159,
      "lat": 47.0340215,
      "lon": 28.8192612,
      "tags": {
        "bus": "yes",
        "highway": "bus_stop",
        "name": "Universitatea de Stat de Medicină și Farmacie",
        "name:ru": "Государственный университет Медицины и Фармации",
        "public_transport": "platform"
      }
    },
    {
      "type": "node",
      "id": 376339174,
      "lat": 47.0370472,
      "lon": 28.8203371,
      "tags": {
        "highway": "bus_stop",
        "name": "Asociația „Tracom“",
        "name:ru": "Ассоциация \"Траком\"",
        "public_transport": "platform"
      }
    },
    {
      "type": "node",
      "id": 376339186,
      "lat": 47.040978,
      "lon": 28.7641734,
      "tags": {
        "highway": "bus_stop",
        "name": "șos. Balcani",
        "name:ru": "Балканское шоссе",
        "public_transport": "platform"
      }
    },
    {
      "type": "node",
      "id": 376339188,
      "lat": 47.0416839,
      "lon": 28.7633017,
      "tags": {
        "highway": "bus_stop",
        "name": "șos. Balcani",
        "name:ru": "Балканское шоссе",
        "public_transport": "platform"
      }
    },
    {
      "type": "node",
      "id": 376339308,
      "lat": 47.0327087,
      "lon": 28.8897008,
      "tags": {
        "highway": "bus_stop",
        "name": "str. Vadul lui Voda",
        "name:ru": "Вадул-луй-Водская ул.",
        "public_transport": "platform"
      }
    },
    {
      "type": "node",
      "id": 376339341,
      "lat": 47.0126688,
      "lon": 28.8875133,
      "tags": {
        "highway": "bus_stop",
        "name": "Uzina de frigidere",
        "name:ru": "Завод холодильников",
        "public_transport": "platform"
      }
    },
    {
      "type": "node",
      "id": 376339347,
      "lat": 47.0206744,
      "lon": 28.8884278,
      "tags": {
        "highway": "bus_stop",
        "name": "Centrul Comercial \"Supraten\"",
        "name:ru": "Коммерческий центр \"Супратен\"",
        "public_transport": "platform"
      }
    },
    {
      "type": "node",
      "id": 376339398,
      "lat": 47.0129643,
      "lon": 28.8864942,
      "tags": {
        "highway": "bus_stop",
        "name": "Asociaţia \"Introscop\"",
        "name:ru": "Ассоциация \"Интроскоп\"",
        "public_transport": "platform"
      }
    },
    {
      "type": "node",
      "id": 376339403,
      "lat": 47.0362593,
      "lon": 28.8226288,
      "tags": {
        "bus": "yes",
        "highway": "bus_stop",
        "name": "str. Columna",
        "name:ru": "ул. Колумна",
        "public_transport": "platform"
      }
    },
    {
      "type": "node",
      "id": 376339418,
      "lat": 47.0247992,
      "lon": 28.887735,
      "tags": {
        "highway": "bus_stop",
        "name": "Parcul de Troleibuze nr.3",
        "name:ru": "Парк Троллейбусов № 3",
        "public_transport": "platform"
      }
    },
    {
      "type": "node",
      "id": 376339419,
      "lat": 47.032466,
      "lon": 28.8886242,
      "tags": {
        "highway": "bus_stop",
        "name": "str. Vadul lui Voda",
        "name:ru": "Вадул-луй-Водская ул.",
        "public_transport": "platform"
      }
    },
    {
      "type": "node",
      "id": 376339467,
      "lat": 47.0201152,
      "lon": 28.8870976,
      "tags": {
        "highway": "bus_stop",
        "name": "Supraten",
        "name:ro": "Supraten",
        "name:ru": "Супратен",
        "public_transport": "platform"
      }
    },
    {
      "type": "node",
      "id": 376339469,
      "lat": 47.0153669,
      "lon": 28.8865764,
      "tags": {
        "highway": "bus_stop",
        "name": "Uzina \"MoldovaHidro-Maș\"",
        "name:ru": "Завод \"Молдова Гидромаш\"",
        "public_transport": "platform"
      }
    },
    {
      "type": "node",
      "id": 376339473,
      "lat": 47.027858,
      "lon": 28.8891963,
      "tags": {
        "highway": "bus_stop",
        "name": "CET-2",
        "name:ru": "ТЭЦ-2",
        "public_transport": "platform"
      }
    },
    {
      "type": "node",
      "id": 376339487,
      "lat": 47.0246226,
      "lon": 28.8888114,
      "tags": {
        "highway": "bus_stop",
        "name": "Parcul de Troleibuze nr.3",
        "name:ru": "Парк Троллейбусов № 3",
        "public_transport": "platform"
      }
    },
    {
      "type": "node",
      "id": 445347712,
      "lat": 47.0381887,
      "lon": 28.7698943,
      "tags": {
        "highway": "bus_stop",
        "name": "str. Liviu Deleanu",
        "name:ru": "ул. Ливиу Деляну",
        "public_transport": "platform"
      }
    },
    {
      "type": "node",
      "id": 445347713,
      "lat": 47.0394678,
      "lon": 28.7677732,
      "tags": {
        "highway": "bus_stop",
        "name": "str. Liviu Deleanu",
        "name:ru": "ул. Ливиу Деляну",
        "public_transport": "platform"
      }
    },
    {
      "type": "node",
      "id": 449672988,
      "lat": 47.0383077,
      "lon": 28.8253542,
      "tags": {
        "highway": "bus_stop",
        "name": "str. Albișoara",
        "name:ru": "ул. Албишоара",
        "old_name": "ул. Набережная",
        "public_transport": "platform"
      }
    },
    {
      "type": "node",
      "id": 461604332,
      "lat": 47.0441294,
      "lon": 28.8626332,
      "tags": {
        "highway": "bus_stop",
        "name": "str. Alecu Russo",
        "name:ru": "ул. Алеку Руссо",
        "public_transport": "platform"
      }
    },
    {
      "type": "node",
      "id": 463180464,
      "lat": 47.0318639,
      "lon": 28.7827047,
      "tags": {
        "highway": "bus_stop",
        "name": "str. Paris",
        "name:ru": "Парижская ул.",
        "public_transport": "platform"
      }
    },
    {
      "type": "node",
      "id": 463180465,
      "lat": 47.0326835,
      "lon": 28.7816851,
      "tags": {
        "highway": "bus_stop",
        "name": "str. Paris",
        "name:ru": "Парижская ул.",
        "public_transport": "platform"
      }
    },
    {
      "type": "node",
      "id": 463180466,
      "lat": 47.0296173,
      "lon": 28.7879603,
      "tags": {
        "highway": "bus_stop",
        "name": "str. Ion Pelivan",
        "name:ru": "ул. Ион Пеливан",
        "public_transport": "platform"
      }
    },
    {
      "type": "node",
      "id": 463180467,
      "lat": 47.034988,
      "lon": 28.7764833,
      "tags": {
        "highway": "bus_stop",
        "name": "str. Onisifor Ghibu",
        "name:ru": "ул. Онисифор Гибу",
        "public_transport": "platform"
      }
    },
    {
      "type": "node",
      "id": 463180468,
      "lat": 47.0356865,
      "lon": 28.775585,
      "tags": {
        "highway": "bus_stop",
        "name": "str. Onisifor Ghibu",
        "name:ru": "ул. Онисифор Гибу",
        "public_transport": "platform"
      }
    },
    {
      "type": "node",
      "id": 527885215,
      "lat": 47.0381312,
      "lon": 28.8845789,
      "tags": {
        "bench": "yes",
        "bus": "yes",
        "covered": "yes",
        "highway": "bus_stop",
        "name": "str. Mihail Sadoveanu",
        "name:ro": "str. Mihail Sadoveanu",
        "name:ru": "ул. Михаил Садовяну",
        "public_transport": "platform",
        "shelter": "yes"
      }
    },
    {
      "type": "node",
      "id": 613009714,
      "lat": 47.0382456,
      "lon": 28.8256815,
      "tags": {
        "highway": "bus_stop",
        "name": "str. Albișoara",
        "name:ru": "ул. Албишоара",
        "old_name": "ул. Набережная",
        "public_transport": "platform"
      }
    },
    {
      "type": "node",
      "id": 633689763,
      "lat": 47.0157316,
      "lon": 28.8877926,
      "tags": {
        "highway": "bus_stop",
        "name": "Asociaţia \"Moldovahidromaş\"",
        "name:ru": "Ассоциация \"Молдавгидромаш\"",
        "public_transport": "platform"
      }
    },
    {
      "type": "node",
      "id": 694216625,
      "lat": 47.0409989,
      "lon": 28.8426189,
      "tags": {
        "highway": "bus_stop",
        "name": "str. Gara \"Vesterniceni\"",
        "name:ru": "ул. Вокзал \"Вестерничены\"",
        "public_transport": "platform"
      }
    },
    {
      "type": "node",
      "id": 1554651685,
      "lat": 47.0436294,
      "lon": 28.8661533,
      "tags": {
        "highway": "bus_stop",
        "name": "str. N. Dimo",
        "name:ru": "ул. Н. Димо",
        "public_transport": "platform"
      }
    },
    {
      "type": "node",
      "id": 1554651691,
      "lat": 47.0441788,
      "lon": 28.8597773,
      "tags": {
        "highway": "bus_stop",
        "name": "Bogdan Voievod",
        "name:ro": "Bogdan Voievod",
        "name:ru": "Богдан Воевод",
        "public_transport": "platform"
      }
    },
    {
      "type": "node",
      "id": 1557395456,
      "lat": 47.0436246,
      "lon": 28.852523,
      "tags": {
        "highway": "bus_stop",
        "name": "str. Florilor",
        "name:ro": "Florilor 6/2",
        "name:ru": "ул. Флорилор",
        "public_transport": "platform"
      }
    },
    {
      "type": "node",
      "id": 1558999570,
      "lat": 47.0413403,
      "lon": 28.842274,
      "tags": {
        "highway": "bus_stop",
        "name": "str. Gara \"Vesterniceni\" №21, 23, 27",
        "name:ru": "ул. Вокзал \"Вестерничены\"",
        "public_transport": "platform",
        "shelter": "no"
      }
    },
    {
      "type": "node",
      "id": 1558999573,
      "lat": 47.0446015,
      "lon": 28.8479992,
      "tags": {
        "highway": "bus_stop",
        "name": "Bd. Renașterii Naționale",
        "name:ro": "Bd. Renașterii Naționale",
        "name:ru": "Коммерческий центр \"Супратен\"",
        "public_transport": "platform"
      }
    },
    {
      "type": "node",
      "id": 1558999576,
      "lat": 47.0447877,
      "lon": 28.8477432,
      "tags": {
        "highway": "bus_stop",
        "name": "str. Calea Orheiului",
        "name:ru": "ул. Каля Орхеюлуй",
        "public_transport": "platform"
      }
    },
    {
      "type": "node",
      "id": 1723817019,
      "lat": 47.0372194,
      "lon": 28.887358,
      "tags": {
        "bench": "yes",
        "covered": "yes",
        "highway": "bus_stop",
        "name": "str. Alecu Russo",
        "name:ru": "ул. Алеку Руссо",
        "public_transport": "platform",
        "shelter": "yes"
      }
    },
    {
      "type": "node",
      "id": 1844942249,
      "lat": 47.043221,
      "lon": 28.8560557,
      "tags": {
        "highway": "bus_stop",
        "name": "Str. Bogdan Voievod",
        "name:ro": "Str. Bogdan Voievod",
        "name:ru": "ул. Богдан Воевод",
        "public_transport": "platform",
        "shelter": "no",
        "tactile_paving": "no"
      }
    },
    {
      "type": "node",
      "id": 2635477677,
      "lat": 47.042694,
      "lon": 28.8356669,
      "tags": {
        "addr:housenumber": "15/3",
        "addr:postcode": "2059",
        "addr:street": "Strada Petricani",
        "email": "info@decorelli.md",
        "highway": "bus_stop",
        "name": "DECORELLI",
        "name:ru": "ДЕКОРЕЛЛИ",
        "opening_hours": "Mo-Fr 09:00-18:00; Sa 09:00-13:00",
        "phone": "+37369728782",
        "public_transport": "platform",
        "shop": "hardware",
        "website": "https://decorelli.md"
      }
    },
    {
      "type": "node",
      "id": 2635477682,
      "lat": 47.0432548,
      "lon": 28.8346676,
      "tags": {
        "highway": "bus_stop",
        "name": "Centrul Comercial \"Supraten\"",
        "name:ru": "Коммерческий центр \"Супратен\"",
        "public_transport": "platform"
      }
    },
    {
      "type": "node",
      "id": 3856161595,
      "lat": 47.0384098,
      "lon": 28.8847033,
      "tags": {
        "bench": "yes",
        "covered": "yes",
        "highway": "bus_stop",
        "name": "str. Mihail Sadoveanu",
        "name:ro": "str. Mihail Sadoveanu",
        "name:ru": "ул. Михаил Садовяну",
        "public_transport": "platform",
        "shelter": "yes"
      }
    },
    {
      "type": "node",
      "id": 3861263969,
      "lat": 47.0365479,
      "lon": 28.8882772,
      "tags": {
        "bench": "yes",
        "covered": "yes",
        "highway": "bus_stop",
        "name": "Meşterul Manole",
        "name:ru": "ул. Мастера Маноле (Мештерул Маноле)",
        "public_transport": "platform",
        "shelter": "yes"
      }
    },
    {
      "type": "node",
      "id": 4566744961,
      "lat": 47.0380999,
      "lon": 28.8161255,
      "tags": {
        "highway": "bus_stop",
        "name": "Mitropolit Dosoftei",
        "name:ru": "Митрополит Дософтей",
        "public_transport": "platform"
      }
    }
  ]
}
