{
  "type": "FeatureCollection",
  "features": [
    {
      "type": "Feature",
      "properties": {
        "type": "node",
        "id": 325005105,
        "tags": {
          "highway": "bus_stop",
          "name": "Gara Feroviara",
          "name:ru": "\u0416\u0435\u043b\u0435\u0437\u043d\u043e\u0434\u043e\u0440\u043e\u0436\u043d\u044b\u0439 \u0432\u043e\u043a\u0437\u0430\u043b. \u0416\u0414 \u0432\u043e\u043a\u0437\u0430\u043b",
          "public_transport": "platform"
        }
      },
      "geometry": {
        "type": "Point",
        "coordinates": [28.8582041, 47.0110807]
      }
    },
    {
      "type": "Feature",
      "properties": {
        "type": "node",
        "id": 325005107,
        "tags": {
          "highway": "bus_stop",
          "name": "Gara Feroviara",
          "name:ru": "\u0416\u0435\u043b\u0435\u0437\u043d\u043e\u0434\u043e\u0440\u043e\u0436\u043d\u044b\u0439 \u0432\u043e\u043a\u0437\u0430\u043b. \u0416\u0414 \u0432\u043e\u043a\u0437\u0430\u043b",
          "public_transport": "platform"
        }
      },
      "geometry": {
        "type": "Point",
        "coordinates": [28.8586766, 47.0111314]
      }
    },
    {
      "type": "Feature",
      "properties": {
        "type": "node",
        "id": 340053720,
        "tags": {
          "highway": "bus_stop",
          "name": "bd. Dumitrie Cantemir",
          "name:ru": "\u043f\u0440-\u0442 \u0414\u043c\u0438\u0442\u0440\u0438\u044f \u041a\u0430\u043d\u0442\u0435\u043c\u0438\u0440\u0430",
          "public_transport": "platform"
        }
      },
      "geometry": {
        "type": "Point",
        "coordinates": [28.8516557, 47.0189164]
      }
    },
    {
      "type": "Feature",
      "properties": {
        "type": "node",
        "id": 340053722,
        "tags": {
          "highway": "bus_stop",
          "name": "Bulevardul Constantin Negruzzi",
          "name:ru": "\u0431\u0443\u043b. \u041d\u0435\u0433\u0440\u0443\u0446\u0446\u0438",
          "name_1": "bd. Negruzzi",
          "public_transport": "platform"
        }
      },
      "geometry": {
        "type": "Point",
        "coordinates": [28.8538448, 47.0136719]
      }
    },
    {
      "type": "Feature",
      "properties": {
        "type": "node",
        "id": 376339135,
        "tags": {
          "highway": "bus_stop",
          "name": "Calea Basarabiei",
          "name:ru": "\u0410\u0441\u0441\u043e\u0446\u0438\u0430\u0446\u0438\u044f \"\u041a\u043e\u0436\u0430\"",
          "public_transport": "platform"
        }
      },
      "geometry": {
        "type": "Point",
        "coordinates": [28.8594908, 47.0224474]
      }
    },
    {
      "type": "Feature",
      "properties": {
        "type": "node",
        "id": 376339136,
        "tags": {
          "highway": "bus_stop",
          "name": "Calea Basarabiei",
          "name:ru": "\u041a\u043e\u0436\u0437\u0430\u0432\u043e\u0434",
          "public_transport": "platform"
        }
      },
      "geometry": {
        "type": "Point",
        "coordinates": [28.8603874, 47.022765]
      }
    },
    {
      "type": "Feature",
      "properties": {
        "type": "node",
        "id": 376339139,
        "tags": {
          "highway": "bus_stop",
          "name": "Strada Alexandru H\u00e2jdeu",
          "name:ru": "\u0443\u043b. \u0410\u043b\u0435\u043a\u0441\u0430\u043d\u0434\u0440\u0430 \u0425\u044b\u0436\u0434\u0435\u0443",
          "public_transport": "platform"
        }
      },
      "geometry": {
        "type": "Point",
        "coordinates": [28.8529655, 47.0204126]
      }
    },
    {
      "type": "Feature",
      "properties": {
        "type": "node",
        "id": 376339208,
        "tags": {
          "highway": "bus_stop",
          "name": "\u015ecoala Medie pe Schimburi nr. 3",
          "public_transport": "platform"
        }
      },
      "geometry": {
        "type": "Point",
        "coordinates": [28.8904762, 47.0024468]
      }
    },
    {
      "type": "Feature",
      "properties": {
        "type": "node",
        "id": 376339210,
        "tags": {
          "highway": "bus_stop",
          "name": "Asocia\u021bia \"Beton Armat\"",
          "name:ru": "\u0410\u0441\u0441\u043e\u0446\u0438\u0430\u0446\u0438\u044f \"\u0410\u0440\u043c\u0438\u0440\u043e\u0432\u0430\u043d\u043d\u044b\u0439 \u0431\u0435\u0442\u043e\u043d\"",
          "public_transport": "platform"
        }
      },
      "geometry": {
        "type": "Point",
        "coordinates": [28.8870581, 47.0052687]
      }
    },
    {
      "type": "Feature",
      "properties": {
        "type": "node",
        "id": 376339213,
        "tags": {
          "highway": "bus_stop",
          "name": "Asocia\u021bia \"Agroma\u0219ina\"",
          "name:ru": "\u0410\u0441\u0441\u043e\u0446\u0438\u0430\u0446\u0438\u044f \"\u0410\u0433\u0440\u043e\u043c\u0430\u0448\u0438\u043d\u0430\"",
          "public_transport": "platform"
        }
      },
      "geometry": {
        "type": "Point",
        "coordinates": [28.8802687, 47.0086455]
      }
    },
    {
      "type": "Feature",
      "properties": {
        "type": "node",
        "id": 376339215,
        "tags": {
          "highway": "bus_stop",
          "name": "Asocia\u021bia \"Agroma\u0219ina\"",
          "name:ru": "\u0410\u0441\u0441\u043e\u0446\u0438\u0430\u0446\u0438\u044f \"\u0410\u0433\u0440\u043e\u043c\u0430\u0448\u0438\u043d\u0430\"",
          "public_transport": "platform"
        }
      },
      "geometry": {
        "type": "Point",
        "coordinates": [28.8785616, 47.0096376]
      }
    },
    {
      "type": "Feature",
      "properties": {
        "type": "node",
        "id": 376339219,
        "tags": {
          "highway": "bus_stop",
          "name": "Asociatia \"Vitanta\"",
          "name:ru": "\u0410\u0441\u0441\u043e\u0446\u0438\u0430\u0446\u0438\u044f \"\u0412\u0438\u0442\u0430\u043d\u0442\u0430\"",
          "public_transport": "platform"
        }
      },
      "geometry": {
        "type": "Point",
        "coordinates": [28.8997748, 46.9967548]
      }
    },
    {
      "type": "Feature",
      "properties": {
        "type": "node",
        "id": 376339221,
        "tags": {
          "highway": "bus_stop",
          "name": "\u015ecoala Medie pe Schimburi nr. 3",
          "public_transport": "platform"
        }
      },
      "geometry": {
        "type": "Point",
        "coordinates": [28.8953611, 46.9989681]
      }
    },
    {
      "type": "Feature",
      "properties": {
        "type": "node",
        "id": 376339222,
        "tags": {
          "highway": "bus_stop",
          "name": "Asocia\u0163ia \"Efes-Vitanta\"",
          "name:ru": "\u0410\u0441\u0441\u043e\u0446\u0438\u0430\u0446\u0438\u044f \"\u042d\u0444\u0435\u0441-\u0412\u0438\u0442\u0430\u043d\u0442\u0430\"",
          "public_transport": "platform"
        }
      },
      "geometry": {
        "type": "Point",
        "coordinates": [28.896488, 46.9985099]
      }
    },
    {
      "type": "Feature",
      "properties": {
        "type": "node",
        "id": 376339225,
        "tags": {
          "highway": "bus_stop",
          "name": "Asocia\u0163ia \"Cerealiere\"",
          "public_transport": "platform"
        }
      },
      "geometry": {
        "type": "Point",
        "coordinates": [28.8704309, 47.0181662]
      }
    },
    {
      "type": "Feature",
      "properties": {
        "type": "node",
        "id": 376339226,
        "tags": {
          "highway": "bus_stop",
          "name": "Asocia\u0163ia \"Cerialiere\"",
          "public_transport": "platform"
        }
      },
      "geometry": {
        "type": "Point",
        "coordinates": [28.8708503, 47.0180956]
      }
    },
    {
      "type": "Feature",
      "properties": {
        "type": "node",
        "id": 376339230,
        "tags": {
          "highway": "bus_stop",
          "name": "Asocia\u0163ia \"Tutun-CTC\"",
          "public_transport": "platform"
        }
      },
      "geometry": {
        "type": "Point",
        "coordinates": [28.8671697, 47.0223274]
      }
    },
    {
      "type": "Feature",
      "properties": {
        "type": "node",
        "id": 376339233,
        "tags": {
          "highway": "bus_stop",
          "name": "Keramin",
          "name:ru": "\u041a\u0435\u0440\u0430\u043c\u0438\u043d",
          "public_transport": "platform"
        }
      },
      "geometry": {
        "type": "Point",
        "coordinates": [28.8763751, 47.0121854]
      }
    },
    {
      "type": "Feature",
      "properties": {
        "type": "node",
        "id": 376339234,
        "tags": {
          "highway": "bus_stop",
          "name": "Keramin",
          "name:ru": "\u041a\u0435\u0440\u0430\u043c\u0438\u043d",
          "public_transport": "platform"
        }
      },
      "geometry": {
        "type": "Point",
        "coordinates": [28.8765952, 47.0116154]
      }
    },
    {
      "type": "Feature",
      "properties": {
        "type": "node",
        "id": 376339237,
        "tags": {
          "highway": "bus_stop",
          "name": "Centrul Comercial \"Progres\"",
          "name:ru": "\u041a\u043e\u043c\u043c\u0435\u0440\u0447\u0435\u0441\u043a\u0438\u0439 \u0446\u0435\u043d\u0442\u0440 \"\u041f\u0440\u043e\u0433\u0440\u0435\u0441\u0441\"",
          "public_transport": "platform"
        }
      },
      "geometry": {
        "type": "Point",
        "coordinates": [28.8737847, 47.0148863]
      }
    },
    {
      "type": "Feature",
      "properties": {
        "type": "node",
        "id": 376339239,
        "tags": {
          "highway": "bus_stop",
          "name": "Centrul Comercial \"Progres\"",
          "name:ru": "\u041a\u043e\u043c\u043c\u0435\u0440\u0447\u0435\u0441\u043a\u0438\u0439 \u0446\u0435\u043d\u0442\u0440 \"\u041f\u0440\u043e\u0433\u0440\u0435\u0441\u0441\"",
          "public_transport": "platform"
        }
      },
      "geometry": {
        "type": "Point",
        "coordinates": [28.8736119, 47.0147515]
      }
    },
    {
      "type": "Feature",
      "properties": {
        "type": "node",
        "id": 376339304,
        "tags": {
          "highway": "bus_stop",
          "name": "Hotel Cosmos",
          "name:ru": "\u0413\u043e\u0441\u0442\u0438\u043d\u0438\u0446\u0430 \"\u041a\u043e\u0441\u043c\u043e\u0441\"",
          "public_transport": "platform"
        }
      },
      "geometry": {
        "type": "Point",
        "coordinates": [28.8548825, 47.0145921]
      }
    },
    {
      "type": "Feature",
      "properties": {
        "type": "node",
        "id": 376339379,
        "tags": {
          "highway": "bus_stop",
          "name": "Ismail",
          "name:ja": "165\u7a7a\u6e2f\u884c\u304d\u30df\u30cb\u30d0\u30b9",
          "name:ru": "\u0418\u0437\u043c\u0430\u0438\u043b",
          "public_transport": "platform"
        }
      },
      "geometry": {
        "type": "Point",
        "coordinates": [28.8474454, 47.0166431]
      }
    },
    {
      "type": "Feature",
      "properties": {
        "type": "node",
        "id": 633621366,
        "tags": {
          "highway": "bus_stop",
          "name": "Gara de Nord",
          "name:ru": "\"\u0421\u0435\u0432\u0435\u0440\u043d\u044b\u0439\" \u0430\u0432\u0442\u043e\u0432\u043e\u043a\u0437\u0430\u043b",
          "public_transport": "platform"
        }
      },
      "geometry": {
        "type": "Point",
        "coordinates": [28.8639933, 47.0232259]
      }
    },
    {
      "type": "Feature",
      "properties": {
        "type": "node",
        "id": 633621369,
        "tags": {
          "highway": "bus_stop",
          "name": "Gara de Nord",
          "name:ru": "\"\u0421\u0435\u0432\u0435\u0440\u043d\u044b\u0439\" \u0430\u0432\u0442\u043e\u0432\u043e\u043a\u0437\u0430\u043b",
          "public_transport": "platform"
        }
      },
      "geometry": {
        "type": "Point",
        "coordinates": [28.8640608, 47.0230406]
      }
    },
    {
      "type": "Feature",
      "properties": {
        "type": "node",
        "id": 652050231,
        "tags": {
          "highway": "bus_stop",
          "name": "str. Industrial\u0103",
          "name:ru": "\u0418\u043d\u0434\u0443\u0441\u0442\u0440\u0438\u0430\u043b\u044c\u043d\u0430\u044f \u0443\u043b.",
          "public_transport": "platform"
        }
      },
      "geometry": {
        "type": "Point",
        "coordinates": [28.905795, 46.9949938]
      }
    },
    {
      "type": "Feature",
      "properties": {
        "type": "node",
        "id": 652050233,
        "tags": {
          "highway": "bus_stop",
          "name": "str. Industrial\u0103",
          "name:ru": "\u0418\u043d\u0434\u0443\u0441\u0442\u0440\u0438\u0430\u043b\u044c\u043d\u0430\u044f \u0443\u043b.",
          "public_transport": "platform"
        }
      },
      "geometry": {
        "type": "Point",
        "coordinates": [28.9053127, 46.9949238]
      }
    },
    {
      "type": "Feature",
      "properties": {
        "type": "node",
        "id": 1216583531,
        "tags": {
          "highway": "bus_stop",
          "name": "Asociatia \"Vitanta\"",
          "name:ru": "\u0410\u0441\u0441\u043e\u0446\u0438\u0430\u0446\u0438\u044f \"\u0412\u0438\u0442\u0430\u043d\u0442\u0430\"",
          "public_transport": "platform"
        }
      },
      "geometry": {
        "type": "Point",
        "coordinates": [28.8988994, 46.9972795]
      }
    },
    {
      "type": "Feature",
      "properties": {
        "type": "node",
        "id": 4563611318,
        "tags": {
          "highway": "bus_stop",
          "name": "Asocia\u021bia \"Beton Armat\"",
          "name:ru": "\u0410\u0441\u0441\u043e\u0446\u0438\u0430\u0446\u0438\u044f \"\u0410\u0440\u043c\u0438\u0440\u043e\u0432\u0430\u043d\u043d\u044b\u0439 \u0431\u0435\u0442\u043e\u043d\"",
          "public_transport": "platform"
        }
      },
      "geometry": {
        "type": "Point",
        "coordinates": [28.8869455, 47.0045905]
      }
    },
    {
      "type": "Feature",
      "properties": {
        "type": "node",
        "id": 4563611331,
        "tags": {
          "highway": "bus_stop",
          "name": "Asocia\u0163ia \"Tutun-CTC\"",
          "public_transport": "platform"
        }
      },
      "geometry": {
        "type": "Point",
        "coordinates": [28.867647, 47.0221375]
      }
    },
    {
      "type": "Feature",
      "properties": {
        "type": "node",
        "id": 6416154914,
        "tags": {
          "highway": "bus_stop",
          "name": "Terminus",
          "public_transport": "platform"
        }
      },
      "geometry": {
        "type": "Point",
        "coordinates": [28.9379293, 46.9842415]
      }
    },
    {
      "type": "Feature",
      "properties": {
        "type": "node",
        "id": 6416154915,
        "tags": {
          "highway": "bus_stop",
          "name": "Terminus",
          "public_transport": "platform"
        }
      },
      "geometry": {
        "type": "Point",
        "coordinates": [28.9379024, 46.9840914]
      }
    }
  ]
}
