{
  "type": "FeatureCollection",
  "features": [
    {
      "type": "Feature",
      "properties": {
        "type": "node",
        "id": 280924752,
        "tags": {
          "amenity": "bus_station",
          "highway": "bus_stop",
          "name": "str. Studen\u021bilor",
          "name:ru": "\u0443\u043b. \u0421\u0442\u0443\u0434\u0435\u043d\u0447\u0435\u0441\u043a\u0430\u044f",
          "public_transport": "platform"
        }
      },
      "geometry": {
        "type": "Point",
        "coordinates": [28.8675067, 47.0584639]
      }
    },
    {
      "type": "Feature",
      "properties": {
        "type": "node",
        "id": 325004929,
        "tags": {
          "highway": "bus_stop",
          "name": "str. Miori\u021ba",
          "name:ru": "\u0443\u043b. \u041c\u0438\u043e\u0440\u0438\u0446\u0430",
          "old_name": "\u0443\u043b. \u041f\u0440\u044f\u043d\u0438\u0448\u043d\u0438\u043a\u043e\u0432\u0430",
          "public_transport": "platform"
        }
      },
      "geometry": {
        "type": "Point",
        "coordinates": [28.8090044, 46.996991]
      }
    },
    {
      "type": "Feature",
      "properties": {
        "type": "node",
        "id": 325004932,
        "tags": {
          "highway": "bus_stop",
          "name": "Campusul Academic",
          "name:ru": "\u0410\u043a\u0430\u0434\u0435\u043c\u0438\u0447\u0435\u0441\u043a\u0438\u0439 \u0413\u043e\u0440\u043e\u0434\u043e\u043a",
          "public_transport": "platform"
        }
      },
      "geometry": {
        "type": "Point",
        "coordinates": [28.8150109, 46.993722]
      }
    },
    {
      "type": "Feature",
      "properties": {
        "type": "node",
        "id": 325004934,
        "tags": {
          "highway": "bus_stop",
          "name": "Colegiul de Construc\u021bii",
          "name:ru": "\u0421\u0442\u0440\u043e\u0438\u0442\u0435\u043b\u044c\u043d\u044b\u0439 \u043a\u043e\u043b\u043b\u0435\u0434\u0436",
          "public_transport": "platform"
        }
      },
      "geometry": {
        "type": "Point",
        "coordinates": [28.8201395, 46.9931771]
      }
    },
    {
      "type": "Feature",
      "properties": {
        "type": "node",
        "id": 325004940,
        "tags": {
          "highway": "bus_stop",
          "name": "str. V. Korolenko",
          "name:ru": "\u0443\u043b. \u0412. \u041a\u043e\u0440\u043e\u043b\u0435\u043d\u043a\u043e",
          "public_transport": "platform"
        }
      },
      "geometry": {
        "type": "Point",
        "coordinates": [28.8203898, 46.9980181]
      }
    },
    {
      "type": "Feature",
      "properties": {
        "type": "node",
        "id": 325004946,
        "tags": {
          "highway": "bus_stop",
          "name": "str. Gh. Asachi",
          "name:ru": "\u0443\u043b. \u0413\u0435\u043e\u0440\u0433\u0435 \u0410\u0441\u0430\u043a\u0438",
          "public_transport": "platform"
        }
      },
      "geometry": {
        "type": "Point",
        "coordinates": [28.8219818, 47.001116]
      }
    },
    {
      "type": "Feature",
      "properties": {
        "type": "node",
        "id": 325004949,
        "tags": {
          "highway": "bus_stop",
          "loc_name": "Academia de Politia",
          "name": "str. Gh. Tudor",
          "name:ru": "\u0443\u043b. \u0413. \u0422\u0443\u0434\u043e\u0440",
          "public_transport": "platform"
        }
      },
      "geometry": {
        "type": "Point",
        "coordinates": [28.824314, 47.003521]
      }
    },
    {
      "type": "Feature",
      "properties": {
        "type": "node",
        "id": 325004954,
        "tags": {
          "highway": "bus_stop",
          "name": "Pia\u0163a Pan Halippa",
          "name:ru": "\u041a\u0438\u043d\u043e\u0442\u0435\u0430\u0442\u0440 \"\u0413\u0430\u0443\u0434\u0435\u0430\u043c\u0443\u0441\"",
          "public_transport": "platform"
        }
      },
      "geometry": {
        "type": "Point",
        "coordinates": [28.8278221, 47.0089282]
      }
    },
    {
      "type": "Feature",
      "properties": {
        "type": "node",
        "id": 325004979,
        "tags": {
          "bus": "yes",
          "highway": "bus_stop",
          "name": "Universitatea de Stat",
          "name:ru": "\u0413\u043e\u0441\u0443\u0434\u0430\u0440\u0441\u0442\u0432\u0435\u043d\u043d\u044b\u0439 \u0443\u043d\u0438\u0432\u0435\u0440\u0441\u0438\u0442\u0435\u0442",
          "public_transport": "platform"
        }
      },
      "geometry": {
        "type": "Point",
        "coordinates": [28.8230148, 47.0183652]
      }
    },
    {
      "type": "Feature",
      "properties": {
        "type": "node",
        "id": 325004984,
        "tags": {
          "bus": "yes",
          "highway": "bus_stop",
          "name": "str. Mihail Kogalniceanu",
          "name:ru": "\u0443\u043b. \u041f\u0443\u0448\u043a\u0438\u043d\u0430",
          "public_transport": "platform"
        }
      },
      "geometry": {
        "type": "Point",
        "coordinates": [28.8273444, 47.0190219]
      }
    },
    {
      "type": "Feature",
      "properties": {
        "type": "node",
        "id": 325004987,
        "tags": {
          "bus": "yes",
          "highway": "bus_stop",
          "name": "Casa Presei",
          "name:ru": "\u0414\u043e\u043c \u041f\u0435\u0447\u0430\u0442\u0438",
          "public_transport": "platform"
        }
      },
      "geometry": {
        "type": "Point",
        "coordinates": [28.8306802, 47.0213214]
      }
    },
    {
      "type": "Feature",
      "properties": {
        "type": "node",
        "id": 325004996,
        "tags": {
          "bus": "yes",
          "highway": "bus_stop",
          "name": "str. Bucure\u0219ti",
          "name:ro": "str. Bucure\u0219ti",
          "name:ru": "\u0443\u043b. \u0411\u0443\u043a\u0443\u0440\u0435\u0448\u0442\u044c",
          "public_transport": "platform"
        }
      },
      "geometry": {
        "type": "Point",
        "coordinates": [28.8259731, 47.0221766]
      }
    },
    {
      "type": "Feature",
      "properties": {
        "type": "node",
        "id": 325004999,
        "tags": {
          "bus": "yes",
          "highway": "bus_stop",
          "name": "Bd. \u0218tefan cel Mare \u0219i Sf\u00e2nt",
          "name:ro": "Bd. \u0218tefan cel Mare \u0219i Sf\u00e2nt",
          "name:ru": "\u041f\u043b\u043e\u0449\u0430\u0434\u044c \u0412\u0435\u043b\u0438\u043a\u043e\u0433\u043e \u041d\u0430\u0446\u0438\u043e\u043d\u0430\u043b\u044c\u043d\u043e\u0433\u043e \u0421\u043e\u0431\u0440\u0430\u043d\u0438\u044f",
          "public_transport": "platform"
        }
      },
      "geometry": {
        "type": "Point",
        "coordinates": [28.8349551, 47.0243474]
      }
    },
    {
      "type": "Feature",
      "properties": {
        "type": "node",
        "id": 325005186,
        "tags": {
          "highway": "bus_stop",
          "name": "str. Dokuciaev",
          "name:ru": "\u0443\u043b. \u0414\u043e\u043a\u0443\u0447\u0430\u0435\u0432\u0430",
          "public_transport": "platform"
        }
      },
      "geometry": {
        "type": "Point",
        "coordinates": [28.816803, 47.0028774]
      }
    },
    {
      "type": "Feature",
      "properties": {
        "type": "node",
        "id": 325005189,
        "tags": {
          "highway": "bus_stop",
          "name": "Telecentru",
          "name:ru": "\u0422\u0435\u043b\u0435\u0446\u0435\u043d\u0442\u0440",
          "public_transport": "platform"
        }
      },
      "geometry": {
        "type": "Point",
        "coordinates": [28.8087899, 46.999051]
      }
    },
    {
      "type": "Feature",
      "properties": {
        "type": "node",
        "id": 325005191,
        "tags": {
          "highway": "bus_stop",
          "loc_name": "Secenov",
          "name": "str. Gh. Tudor",
          "name:ru": "\u0443\u043b. \u0413. \u0422\u0443\u0434\u043e\u0440",
          "public_transport": "platform"
        }
      },
      "geometry": {
        "type": "Point",
        "coordinates": [28.8213058, 47.004913]
      }
    },
    {
      "type": "Feature",
      "properties": {
        "type": "node",
        "id": 340052760,
        "tags": {
          "bus": "yes",
          "highway": "bus_stop",
          "name": "Gr\u0103dina Public\u0103",
          "name:ru": "\u041f\u0430\u0440\u043a",
          "public_transport": "platform"
        }
      },
      "geometry": {
        "type": "Point",
        "coordinates": [28.8291614, 47.0244375]
      }
    },
    {
      "type": "Feature",
      "properties": {
        "type": "node",
        "id": 340052764,
        "tags": {
          "highway": "bus_stop",
          "name": "Str. Alecu Russo",
          "name:ro": "Str. Alecu Russo",
          "name:ru": "\u0443\u043b. \u0410\u043b\u0435\u043a\u0443 \u0420\u0443\u0441\u0441\u043e",
          "public_transport": "platform"
        }
      },
      "geometry": {
        "type": "Point",
        "coordinates": [28.8607499, 47.0432207]
      }
    },
    {
      "type": "Feature",
      "properties": {
        "type": "node",
        "id": 340052765,
        "tags": {
          "highway": "bus_stop",
          "name": "str. Miron Costin",
          "name:ru": "\u0443\u043b. \u041c\u0438\u0440\u043e\u043d\u0430 \u041a\u043e\u0441\u0442\u0438\u043d\u0430",
          "public_transport": "platform"
        }
      },
      "geometry": {
        "type": "Point",
        "coordinates": [28.8636871, 47.0498674]
      }
    },
    {
      "type": "Feature",
      "properties": {
        "type": "node",
        "id": 340052766,
        "tags": {
          "highway": "bus_stop",
          "name": "str. Miron Costin",
          "name:ru": "\u0443\u043b. \u041c\u0438\u0440\u043e\u043d\u0430 \u041a\u043e\u0441\u0442\u0438\u043d\u0430",
          "public_transport": "platform"
        }
      },
      "geometry": {
        "type": "Point",
        "coordinates": [28.8630222, 47.0491288]
      }
    },
    {
      "type": "Feature",
      "properties": {
        "type": "node",
        "id": 340052767,
        "tags": {
          "highway": "bus_stop",
          "name": "str. Studen\u021bilor",
          "name:ru": "\u0443\u043b. \u0421\u0442\u0443\u0434\u0435\u043d\u0447\u0435\u0441\u043a\u0430\u044f",
          "public_transport": "platform"
        }
      },
      "geometry": {
        "type": "Point",
        "coordinates": [28.8666919, 47.0586327]
      }
    },
    {
      "type": "Feature",
      "properties": {
        "type": "node",
        "id": 340052768,
        "tags": {
          "highway": "bus_stop",
          "name": "Circul",
          "name:en": "Circus",
          "name:ru": "\u0426\u0438\u0440\u043a",
          "public_transport": "platform"
        }
      },
      "geometry": {
        "type": "Point",
        "coordinates": [28.8494001, 47.036029]
      }
    },
    {
      "type": "Feature",
      "properties": {
        "type": "node",
        "id": 340052769,
        "tags": {
          "highway": "bus_stop",
          "name": "Circ",
          "name:ru": "\u0426\u0438\u0440\u043a",
          "public_transport": "platform"
        }
      },
      "geometry": {
        "type": "Point",
        "coordinates": [28.8497218, 47.0366359]
      }
    },
    {
      "type": "Feature",
      "properties": {
        "type": "node",
        "id": 340052772,
        "tags": {
          "bus": "yes",
          "highway": "bus_stop",
          "name": "bd. Grigore Vieru",
          "name:ru": "\u0411\u0443\u043b\u044c\u0432\u0430\u0440 \u0413\u0440\u0438\u0433\u043e\u0440\u0438\u044f \u0412\u0438\u0435\u0440\u0443",
          "public_transport": "platform"
        }
      },
      "geometry": {
        "type": "Point",
        "coordinates": [28.8388897, 47.0287792]
      }
    },
    {
      "type": "Feature",
      "properties": {
        "type": "node",
        "id": 340052773,
        "tags": {
          "bus": "yes",
          "highway": "bus_stop",
          "name": "str. Columna",
          "name:ru": "\u0443\u043b. \u041a\u043e\u043b\u0443\u043c\u043d\u0430",
          "old_name": "\u0443\u043b. \u0424\u0440\u0443\u043d\u0437\u0435",
          "public_transport": "platform"
        }
      },
      "geometry": {
        "type": "Point",
        "coordinates": [28.8335423, 47.0274523]
      }
    },
    {
      "type": "Feature",
      "properties": {
        "type": "node",
        "id": 340052774,
        "tags": {
          "highway": "bus_stop",
          "name": "str. Kiev",
          "name:ru": "\u0443\u043b. \u041a\u0438\u0435\u0432\u0441\u043a\u0430\u044f",
          "public_transport": "platform",
          "shelter": "yes",
          "tactile_paving": "no"
        }
      },
      "geometry": {
        "type": "Point",
        "coordinates": [28.8599565, 47.0402243]
      }
    },
    {
      "type": "Feature",
      "properties": {
        "type": "node",
        "id": 340052775,
        "tags": {
          "highway": "bus_stop",
          "name": "Str. Alecu Russo",
          "name:en": "Str. Moscow Avenue",
          "name:ro": "Str. Bulevardul Moscova",
          "name:ru": "\u0443\u043b. \u041c\u043e\u0441\u043a\u043e\u0432\u0441\u043a\u0438\u0439 \u043f\u0440\u043e\u0441\u043f\u0435\u043a\u0442",
          "public_transport": "platform"
        }
      },
      "geometry": {
        "type": "Point",
        "coordinates": [28.8620731, 47.0454792]
      }
    },
    {
      "type": "Feature",
      "properties": {
        "type": "node",
        "id": 376339107,
        "tags": {
          "highway": "bus_stop",
          "name": "str. Mihai Eminescu",
          "name:ru": "\u0443\u043b. \u041c\u0438\u0445\u0430\u044f \u042d\u043c\u0438\u043d\u0435\u0441\u043a\u0443",
          "public_transport": "platform"
        }
      },
      "geometry": {
        "type": "Point",
        "coordinates": [28.8264898, 47.015483]
      }
    },
    {
      "type": "Feature",
      "properties": {
        "type": "node",
        "id": 376339147,
        "tags": {
          "highway": "bus_stop",
          "name": "str. Anton Crihan",
          "name:ru": "\u0443\u043b. \u0410\u043d\u0442\u043e\u043d \u041a\u0440\u0438\u0445\u0430\u043d",
          "public_transport": "platform"
        }
      },
      "geometry": {
        "type": "Point",
        "coordinates": [28.8279157, 47.0128935]
      }
    },
    {
      "type": "Feature",
      "properties": {
        "type": "node",
        "id": 376339280,
        "tags": {
          "highway": "bus_stop",
          "name": "str. Eugen Doga",
          "name:ru": "\u0443\u043b. \u0415\u0432\u0433\u0435\u043d\u0438\u044f \u0414\u043e\u0433\u0438",
          "public_transport": "platform"
        }
      },
      "geometry": {
        "type": "Point",
        "coordinates": [28.8390869, 47.0294757]
      }
    },
    {
      "type": "Feature",
      "properties": {
        "type": "node",
        "id": 376339320,
        "tags": {
          "highway": "bus_stop",
          "name": "str. Kiev",
          "name:ru": "\u0443\u043b. \u041a\u0438\u0435\u0432\u0441\u043a\u0430\u044f",
          "public_transport": "platform",
          "shelter": "yes",
          "tactile_paving": "no"
        }
      },
      "geometry": {
        "type": "Point",
        "coordinates": [28.8593514, 47.039707]
      }
    },
    {
      "type": "Feature",
      "properties": {
        "type": "node",
        "id": 461604330,
        "tags": {
          "bus": "yes",
          "highway": "bus_stop",
          "name": "str. Roman\u0103",
          "name:ru": "\u0443\u043b. \u0420\u043e\u043c\u0430\u043d\u044d",
          "public_transport": "platform"
        }
      },
      "geometry": {
        "type": "Point",
        "coordinates": [28.8427908, 47.032016]
      }
    },
    {
      "type": "Feature",
      "properties": {
        "type": "node",
        "id": 461604331,
        "tags": {
          "highway": "bus_stop",
          "name": "str. Roman\u0103",
          "public_transport": "platform"
        }
      },
      "geometry": {
        "type": "Point",
        "coordinates": [28.8442191, 47.0323655]
      }
    },
    {
      "type": "Feature",
      "properties": {
        "type": "node",
        "id": 461604333,
        "tags": {
          "highway": "bus_stop",
          "name": "str. Matei Basarab",
          "name:ro": "str. Matei Basarab 13/5",
          "name:ru": "\u0443\u043b. \u041c\u0430\u0442\u0435\u0439 \u0411\u0430\u0441\u0430\u0440\u0430\u0431",
          "public_transport": "platform"
        }
      },
      "geometry": {
        "type": "Point",
        "coordinates": [28.8651157, 47.0549227]
      }
    },
    {
      "type": "Feature",
      "properties": {
        "type": "node",
        "id": 461604334,
        "tags": {
          "highway": "bus_stop",
          "name": "str. Matei Basarab",
          "name:ru": "\u0443\u043b. \u041c\u0430\u0442\u0435\u0439 \u0411\u0430\u0441\u0430\u0440\u0430\u0431",
          "public_transport": "platform"
        }
      },
      "geometry": {
        "type": "Point",
        "coordinates": [28.8658568, 47.0554695]
      }
    },
    {
      "type": "Feature",
      "properties": {
        "type": "node",
        "id": 1032276238,
        "tags": {
          "highway": "bus_stop",
          "name": "Magazin \"Fidesco\"",
          "name:ru": "\u041c\u0430\u0433\u0430\u0437\u0438\u043d \"\u0424\u0438\u0434\u0435\u0441\u043a\u043e\"",
          "public_transport": "platform"
        }
      },
      "geometry": {
        "type": "Point",
        "coordinates": [28.8249976, 47.0064518]
      }
    }
  ]
}
