{
  "type": "FeatureCollection",
  "features": [
    {
      "type": "Feature",
      "properties": {
        "type": "node",
        "id": 325004990,
        "tags": {
          "bus": "yes",
          "highway": "bus_stop",
          "name": "str. 31 August 1989",
          "name:ro": "str. 31 August 1989",
          "name:ru": "\u0443\u043b. 31 \u0410\u0432\u0433\u0443\u0441\u0442\u0430 1989",
          "public_transport": "platform"
        }
      },
      "geometry": {
        "type": "Point",
        "coordinates": [28.8295459, 47.0225088]
      }
    },
    {
      "type": "Feature",
      "properties": {
        "type": "node",
        "id": 325005092,
        "tags": {
          "bus": "yes",
          "highway": "bus_stop",
          "name": "str. Armeneasc\u0103",
          "name:ru": "\u0410\u0440\u043c\u044f\u043d\u0441\u043a\u0430\u044f \u0443\u043b.",
          "public_transport": "platform"
        }
      },
      "geometry": {
        "type": "Point",
        "coordinates": [28.8392228, 47.0202032]
      }
    },
    {
      "type": "Feature",
      "properties": {
        "type": "node",
        "id": 325005194,
        "tags": {
          "highway": "bus_stop",
          "name": "Bd. Cuza Vod\u0103",
          "name:ru": "\u0431\u0443\u043b\u044c\u0432\u0430\u0440 \u041a\u0443\u0437\u0430 \u0412\u043e\u0434\u044d",
          "public_transport": "platform"
        }
      },
      "geometry": {
        "type": "Point",
        "coordinates": [28.8615119, 46.983496]
      }
    },
    {
      "type": "Feature",
      "properties": {
        "type": "node",
        "id": 325005196,
        "tags": {
          "highway": "bus_stop",
          "name": "bd. Cuza Vod\u0103",
          "name:ru": "\u0431\u0443\u043b\u044c\u0432\u0430\u0440 \u041a\u0443\u0437\u0430 \u0412\u043e\u0434\u044d",
          "public_transport": "platform"
        }
      },
      "geometry": {
        "type": "Point",
        "coordinates": [28.8623498, 46.9824187]
      }
    },
    {
      "type": "Feature",
      "properties": {
        "type": "node",
        "id": 325005197,
        "tags": {
          "highway": "bus_stop",
          "name": "Str. Burebista",
          "name:ro": "Str. Burebista",
          "name:ru": "\u0443\u043b. \u0411\u0443\u0440\u0435\u0431\u0438\u0441\u0442\u0430",
          "public_transport": "platform"
        }
      },
      "geometry": {
        "type": "Point",
        "coordinates": [28.8675759, 46.9791746]
      }
    },
    {
      "type": "Feature",
      "properties": {
        "type": "node",
        "id": 325005200,
        "tags": {
          "bus": "yes",
          "highway": "bus_stop",
          "name": "Str. Independen\u021bei",
          "name:en": "Independen\u021bei Street",
          "name:ro": "Str. Independen\u021bei",
          "name:ru": "\u0443\u043b. \u041d\u0435\u0437\u0430\u0432\u0438\u0441\u0438\u043c\u043e\u0441\u0442\u0438",
          "public_transport": "platform"
        }
      },
      "geometry": {
        "type": "Point",
        "coordinates": [28.8669898, 46.9790222]
      }
    },
    {
      "type": "Feature",
      "properties": {
        "type": "node",
        "id": 340052760,
        "tags": {
          "bus": "yes",
          "highway": "bus_stop",
          "name": "Gr\u0103dina Public\u0103",
          "name:ru": "\u041f\u0430\u0440\u043a",
          "public_transport": "platform"
        }
      },
      "geometry": {
        "type": "Point",
        "coordinates": [28.8291614, 47.0244375]
      }
    },
    {
      "type": "Feature",
      "properties": {
        "type": "node",
        "id": 345324570,
        "tags": {
          "bus": "yes",
          "highway": "bus_stop",
          "name": "Valea Crucii",
          "name:ru": "\u0412\u0430\u043b\u044f \u041a\u0440\u0443\u0447\u0438\u0439",
          "public_transport": "platform"
        }
      },
      "geometry": {
        "type": "Point",
        "coordinates": [28.8703912, 46.9767065]
      }
    },
    {
      "type": "Feature",
      "properties": {
        "type": "node",
        "id": 372466319,
        "tags": {
          "highway": "bus_stop",
          "name": "str. Teilor",
          "name:ru": "\u0443\u043b. \u0422\u0435\u0438\u043b\u043e\u0440",
          "public_transport": "platform"
        }
      },
      "geometry": {
        "type": "Point",
        "coordinates": [28.8529137, 46.9897664]
      }
    },
    {
      "type": "Feature",
      "properties": {
        "type": "node",
        "id": 376339072,
        "tags": {
          "highway": "bus_stop",
          "name": "str. Ciuflea",
          "name:ru": "\u0443\u043b. \u0427\u0443\u0444\u043b\u044f",
          "public_transport": "platform"
        }
      },
      "geometry": {
        "type": "Point",
        "coordinates": [28.8471549, 47.0135272]
      }
    },
    {
      "type": "Feature",
      "properties": {
        "type": "node",
        "id": 376339075,
        "tags": {
          "highway": "bus_stop",
          "name": "Ciuflea",
          "name:ru": "\u0443\u043b. \u0427\u0443\u0444\u043b\u044f",
          "public_transport": "platform"
        }
      },
      "geometry": {
        "type": "Point",
        "coordinates": [28.8459592, 47.0124314]
      }
    },
    {
      "type": "Feature",
      "properties": {
        "type": "node",
        "id": 376339084,
        "tags": {
          "highway": "bus_stop",
          "name": "Metro 2",
          "name:ru": "\u041c\u0435\u0442\u0440\u043e 2",
          "public_transport": "platform"
        }
      },
      "geometry": {
        "type": "Point",
        "coordinates": [28.890468, 46.9642484]
      }
    },
    {
      "type": "Feature",
      "properties": {
        "type": "node",
        "id": 376339087,
        "tags": {
          "highway": "bus_stop",
          "name": "Metro 2",
          "name:ru": "\u041c\u0435\u0442\u0440\u043e 2",
          "public_transport": "platform"
        }
      },
      "geometry": {
        "type": "Point",
        "coordinates": [28.8901487, 46.9649733]
      }
    },
    {
      "type": "Feature",
      "properties": {
        "type": "node",
        "id": 376339119,
        "tags": {
          "highway": "bus_stop",
          "name": "Cartierul \"Galata\"",
          "public_transport": "platform"
        }
      },
      "geometry": {
        "type": "Point",
        "coordinates": [28.9263316, 46.9417627]
      }
    },
    {
      "type": "Feature",
      "properties": {
        "type": "node",
        "id": 376339123,
        "tags": {
          "highway": "bus_stop",
          "name": "str. Bacioii Noi",
          "name:ru": "\u0443\u043b. \u041d\u043e\u0432\u043e\u0431\u0430\u0447\u043e\u0439\u0441\u043a\u0430\u044f",
          "public_transport": "platform"
        }
      },
      "geometry": {
        "type": "Point",
        "coordinates": [28.9140064, 46.9495358]
      }
    },
    {
      "type": "Feature",
      "properties": {
        "type": "node",
        "id": 376339124,
        "tags": {
          "highway": "bus_stop",
          "name": "Cartierul \"Galata\"",
          "public_transport": "platform"
        }
      },
      "geometry": {
        "type": "Point",
        "coordinates": [28.9264238, 46.9421236]
      }
    },
    {
      "type": "Feature",
      "properties": {
        "type": "node",
        "id": 376339127,
        "tags": {
          "highway": "bus_stop",
          "name": "Spitalul Clinic Municipal nr.1",
          "name:ru": "\u0413\u043e\u0440\u043e\u0434\u0441\u043a\u0430\u044f \u043a\u043b\u0438\u043d\u0438\u0447\u0435\u0441\u043a\u0430\u044f \u0431\u043e\u043b\u044c\u043d\u0438\u0446\u0430 \u21161",
          "public_transport": "platform"
        }
      },
      "geometry": {
        "type": "Point",
        "coordinates": [28.8417466, 47.0053984]
      }
    },
    {
      "type": "Feature",
      "properties": {
        "type": "node",
        "id": 376339128,
        "tags": {
          "highway": "bus_stop",
          "name": "Pia\u021ba Ovidiu",
          "name:ru": "\u043f\u043b\u043e\u0449\u0430\u0434\u044c \u041e\u0432\u0438\u0434\u0438\u0443",
          "public_transport": "platform"
        }
      },
      "geometry": {
        "type": "Point",
        "coordinates": [28.8428603, 47.0106495]
      }
    },
    {
      "type": "Feature",
      "properties": {
        "type": "node",
        "id": 376339131,
        "tags": {
          "highway": "bus_stop",
          "name": "str. Bacioii Noi",
          "name:ru": "\u0443\u043b. \u041d\u043e\u0432\u043e\u0431\u0430\u0447\u043e\u0439\u0441\u043a\u0430\u044f",
          "public_transport": "platform"
        }
      },
      "geometry": {
        "type": "Point",
        "coordinates": [28.9133935, 46.9503228]
      }
    },
    {
      "type": "Feature",
      "properties": {
        "type": "node",
        "id": 376339155,
        "tags": {
          "bus": "yes",
          "highway": "bus_stop",
          "name": "Teatrul M. Eminescu",
          "name:ru": "\u0422\u0435\u0430\u0442\u0440 \u041c. \u042d\u043c\u0438\u043d\u0435\u0441\u043a\u0443",
          "public_transport": "platform",
          "shelter": "yes",
          "wheelchair": "yes"
        }
      },
      "geometry": {
        "type": "Point",
        "coordinates": [28.8357781, 47.0222]
      }
    },
    {
      "type": "Feature",
      "properties": {
        "type": "node",
        "id": 376339157,
        "tags": {
          "bus": "yes",
          "highway": "bus_stop",
          "name": "Pia\u021ba M\u0103rii Adun\u0103ri Na\u021bionale",
          "name:ru": "\u041f\u043b\u043e\u0449\u0430\u0434\u044c \u0412\u0435\u043b\u0438\u043a\u043e\u0433\u043e \u041d\u0430\u0446\u0438\u043e\u043d\u0430\u043b\u044c\u043d\u043e\u0433\u043e \u0421\u043e\u0431\u0440\u0430\u043d\u0438\u044f",
          "public_transport": "platform",
          "shelter": "yes",
          "wheelchair": "yes"
        }
      },
      "geometry": {
        "type": "Point",
        "coordinates": [28.834813, 47.0231458]
      }
    },
    {
      "type": "Feature",
      "properties": {
        "type": "node",
        "id": 376339274,
        "tags": {
          "bus": "yes",
          "highway": "bus_stop",
          "name": "str. Armeneasc\u0103",
          "name:ru": "\u0410\u0440\u043c\u044f\u043d\u0441\u043a\u0430\u044f \u0443\u043b.",
          "public_transport": "platform"
        }
      },
      "geometry": {
        "type": "Point",
        "coordinates": [28.8397255, 47.0195775]
      }
    },
    {
      "type": "Feature",
      "properties": {
        "type": "node",
        "id": 450993216,
        "tags": {
          "highway": "bus_stop",
          "name": "Bd. Dacia",
          "name:ro": "Bd. Dacia",
          "name:ru": "\u0411\u0443\u043b\u044c\u0432\u0430\u0440 \u0414\u0430\u0447\u0438\u044f",
          "public_transport": "platform"
        }
      },
      "geometry": {
        "type": "Point",
        "coordinates": [28.8580556, 46.9854249]
      }
    },
    {
      "type": "Feature",
      "properties": {
        "type": "node",
        "id": 450993217,
        "tags": {
          "highway": "bus_stop",
          "name": "Bd. Traian",
          "name:ro": "Bd. Traian",
          "name:ru": "\u0431\u0443\u043b\u044c\u0432\u0430\u0440 \u0422\u0440\u0430\u044f\u043d\u0430",
          "public_transport": "platform"
        }
      },
      "geometry": {
        "type": "Point",
        "coordinates": [28.8561658, 46.9854534]
      }
    },
    {
      "type": "Feature",
      "properties": {
        "type": "node",
        "id": 461612416,
        "tags": {
          "highway": "bus_stop",
          "name": ".",
          "name:ru": "\u0431\u0443\u043b\u044c\u0432\u0430\u0440 \u0414\u0435\u0447\u0435\u0431\u0430\u043b",
          "public_transport": "platform"
        }
      },
      "geometry": {
        "type": "Point",
        "coordinates": [28.85643, 46.9872003]
      }
    },
    {
      "type": "Feature",
      "properties": {
        "type": "node",
        "id": 559725618,
        "tags": {
          "bus": "yes",
          "highway": "bus_stop",
          "name": "str. Aeroport",
          "public_transport": "platform"
        }
      },
      "geometry": {
        "type": "Point",
        "coordinates": [28.9331728, 46.9385447]
      }
    },
    {
      "type": "Feature",
      "properties": {
        "type": "node",
        "id": 652049976,
        "tags": {
          "highway": "bus_stop",
          "name": "Valea Crucii",
          "name:ru": "\u0412\u0430\u043b\u044f \u041a\u0440\u0443\u0447\u0438\u0439",
          "public_transport": "platform"
        }
      },
      "geometry": {
        "type": "Point",
        "coordinates": [28.8705331, 46.9773366]
      }
    },
    {
      "type": "Feature",
      "properties": {
        "type": "node",
        "id": 1068789753,
        "tags": {
          "highway": "bus_stop",
          "name": "str. Aeroport",
          "public_transport": "platform"
        }
      },
      "geometry": {
        "type": "Point",
        "coordinates": [28.9325745, 46.9379672]
      }
    },
    {
      "type": "Feature",
      "properties": {
        "type": "node",
        "id": 1216583430,
        "tags": {
          "highway": "bus_stop",
          "name": "Str. Teilor",
          "name:ro": "Str. Teilor",
          "name:ru": "\u0443\u043b. \u0422\u0435\u0438\u043b\u043e\u0440",
          "public_transport": "platform"
        }
      },
      "geometry": {
        "type": "Point",
        "coordinates": [28.8539442, 46.9881816]
      }
    },
    {
      "type": "Feature",
      "properties": {
        "type": "node",
        "id": 1216583441,
        "tags": {
          "highway": "bus_stop",
          "name": "Hristo Botev",
          "name:ru": "\u0425\u0440\u0438\u0441\u0442\u043e \u0411\u043e\u0442\u0435\u0432",
          "public_transport": "platform"
        }
      },
      "geometry": {
        "type": "Point",
        "coordinates": [28.8472483, 46.99315]
      }
    },
    {
      "type": "Feature",
      "properties": {
        "type": "node",
        "id": 1216583462,
        "tags": {
          "highway": "bus_stop",
          "name": "Spitalul Clinic Municipal nr.1",
          "name:ru": "\u0413\u043e\u0440\u043e\u0434\u0441\u043a\u0430\u044f \u043a\u043b\u0438\u043d\u0438\u0447\u0435\u0441\u043a\u0430\u044f \u0431\u043e\u043b\u044c\u043d\u0438\u0446\u0430 \u21161",
          "public_transport": "platform"
        }
      },
      "geometry": {
        "type": "Point",
        "coordinates": [28.8420937, 47.0049971]
      }
    },
    {
      "type": "Feature",
      "properties": {
        "type": "node",
        "id": 1216583538,
        "tags": {
          "highway": "bus_stop",
          "name": "Zelinski",
          "name:ru": "\u043f\u0440. \u0414\u0430\u0447\u0438\u044f",
          "public_transport": "platform"
        }
      },
      "geometry": {
        "type": "Point",
        "coordinates": [28.8490534, 46.9924852]
      }
    },
    {
      "type": "Feature",
      "properties": {
        "type": "node",
        "id": 4572932338,
        "tags": {
          "highway": "bus_stop",
          "name": "Aerogara",
          "name:en": "Air terminal",
          "name:ru": "\u0410\u044d\u0440\u043e\u0432\u043e\u043a\u0437\u0430\u043b",
          "public_transport": "platform"
        }
      },
      "geometry": {
        "type": "Point",
        "coordinates": [28.9354122, 46.9353858]
      }
    },
    {
      "type": "Feature",
      "properties": {
        "type": "node",
        "id": 4884310091,
        "tags": {
          "highway": "bus_stop",
          "name": "UNIC",
          "name:ru": "\u0423\u043d\u0438\u043a",
          "public_transport": "platform"
        }
      },
      "geometry": {
        "type": "Point",
        "coordinates": [28.8448429, 47.0163961]
      }
    },
    {
      "type": "Feature",
      "properties": {
        "type": "node",
        "id": 4889292449,
        "tags": {
          "bench": "yes",
          "highway": "bus_stop",
          "name": "UNIC",
          "name:ru": "\u0423\u043d\u0438\u043a",
          "public_transport": "platform",
          "shelter": "yes"
        }
      },
      "geometry": {
        "type": "Point",
        "coordinates": [28.8438959, 47.0168053]
      }
    }
  ]
}
